{
  "aberfeldy": {
    "shortName": "Aberfeldy",
    "searchName": "Aberfeldy",
    "displayName": "Aberfeldy, Perth and Kinross, Scotland, PH15 2DD, United Kingdom",
    "lat": 56.6193213,
    "lng": -3.86509
  },
  "abingdon": {
    "shortName": "Abington",
    "searchName": "Abington",
    "displayName": "Welcome Break Abington Services, A702, Abington, South Lanarkshire, Scotland, ML12 6RG, United Kingdom",
    "lat": 55.5060674,
    "lng": -3.6949926
  },
  "abington": {
    "shortName": "Abington",
    "searchName": "Abington",
    "displayName": "Welcome Break Abington Services, A702, Abington, South Lanarkshire, Scotland, ML12 6RG, United Kingdom",
    "lat": 55.5060674,
    "lng": -3.6949926
  },
  "achen": {
    "shortName": "Achen",
    "searchName": "Achen",
    "displayName": "Asch, Buren, Gelderland, Netherlands",
    "lat": 51.9304301,
    "lng": 5.3127288
  },
  "airborneplein": {
    "shortName": "Airborneplein",
    "searchName": "Airborneplein",
    "displayName": "Airborneplein, Bij de John Frostbrug, Spijkerkwartier, Arnhem, Gelderland, Netherlands, 6828 HX, Netherlands",
    "lat": 51.9786727,
    "lng": 5.9158682
  },
  "aldgate": {
    "shortName": "aldgate",
    "searchName": "aldgate",
    "displayName": "Aldgate, St. Botolph Row, Leadenhall Market, Aldgate, City of London, Greater London, England, EC3N 1AB, United Kingdom",
    "lat": 51.5142477,
    "lng": -0.0757186
  },
  "amersfoot": {
    "shortName": "Amersfoot",
    "searchName": "Amersfoot",
    "displayName": "Amersfoort, Utrecht, Netherlands",
    "lat": 52.1637703,
    "lng": 5.4088845
  },
  "amsderam stadium": {
    "shortName": "amsderam stadium",
    "searchName": "amsderam stadium",
    "displayName": "Johan Cruijff ArenA, 1, Johan Cruijff Boulevard, Zuidoost, Amsterdam, North Holland, Netherlands, 1100 DL, Netherlands",
    "lat": 52.314353,
    "lng": 4.9428431
  },
  "amsfort": {
    "shortName": "amsfort",
    "searchName": "amsfort",
    "displayName": "Amsfort College, 40, Columbusweg, Kruiskamp, Amersfoort, Utrecht, Netherlands, 3814 WE, Netherlands",
    "lat": 52.1605751,
    "lng": 5.4036336
  },
  "amstedam": {
    "shortName": "amstedam",
    "searchName": "amstedam",
    "displayName": "Amsterdam, North Holland, Netherlands",
    "lat": 52.3730796,
    "lng": 4.8924534
  },
  "amsterdam": {
    "shortName": "amsterdam",
    "searchName": "amsterdam",
    "displayName": "Amsterdam, North Holland, Netherlands",
    "lat": 52.3730796,
    "lng": 4.8924534
  },
  "amsterdam central": {
    "shortName": "Amsterdam Central",
    "searchName": "Amsterdam Central",
    "displayName": "Amsterdam Central Station, Middentunnel, Centrum, Amsterdam, North Holland, Netherlands, 1012 AB, Netherlands",
    "lat": 52.378901,
    "lng": 4.9005805
  },
  "amsterdam lelylaan": {
    "shortName": "Amsterdam Lelylaan",
    "searchName": "Amsterdam Lelylaan",
    "displayName": "Amsterdam Lelylaan, 37, Cornelis Lelylaan, Overtoomse Veld, Nieuw-West, Amsterdam, North Holland, Netherlands, 1062 HD, Netherlands",
    "lat": 52.3578369,
    "lng": 4.8340268
  },
  "amsterdam stadium": {
    "shortName": "amsterdam stadium",
    "searchName": "amsterdam stadium",
    "displayName": "Olympic Stadium, Olympisch Stadion, Stadionbuurt, Oud-Zuid, Zuid, Amsterdam, North Holland, Netherlands, 1076 DE, Netherlands",
    "lat": 52.3434439,
    "lng": 4.8540543
  },
  "amsterdam zuid": {
    "shortName": "Amsterdam zuid",
    "searchName": "Amsterdam zuid",
    "displayName": "Amsterdam Zuid, 10, Zuidplein, Strawinsky, Zuidas, Zuid, Amsterdam, North Holland, Netherlands, 1077 XV, Netherlands",
    "lat": 52.3388074,
    "lng": 4.873191
  },
  "arnem": {
    "shortName": "Arnem",
    "searchName": "Arnem",
    "displayName": "Arnhem, Gelderland, Netherlands",
    "lat": 51.984257,
    "lng": 5.9108573
  },
  "arnhem, sint laurentiuslaan": {
    "shortName": "Arnhem, Sint Laurentiuslaan",
    "searchName": "Arnhem, Sint Laurentiuslaan",
    "displayName": "Sint Laurentiuslaan, Zeegsingel en omgeving, Malburgen-Oost (Zuid), Arnhem, Gelderland, Netherlands, 6832 CH, Netherlands",
    "lat": 51.9647745,
    "lng": 5.9072784
  },
  "balloch": {
    "shortName": "Balloch",
    "searchName": "Balloch",
    "displayName": "Balloch, West Dunbartonshire, Scotland, G83 8LE, United Kingdom",
    "lat": 56.0040003,
    "lng": -4.5788823
  },
  "basel": {
    "shortName": "Basel",
    "searchName": "Basel",
    "displayName": "Basel, Basel-City, Switzerland",
    "lat": 47.5581077,
    "lng": 7.5878261
  },
  "battersea power station": {
    "shortName": "battersea power station",
    "searchName": "battersea power station",
    "displayName": "Battersea Power Station, Electric Boulevard, Nine Elms, Clapham Junction, London Borough of Wandsworth, Greater London, England, SW11 8DD, United Kingdom",
    "lat": 51.4817738,
    "lng": -0.1445821
  },
  "benthal green": {
    "shortName": "Benthal green",
    "searchName": "Benthal green",
    "displayName": "Bethnal Green, London Borough of Tower Hamlets, Greater London, England, E2 9RA, United Kingdom",
    "lat": 51.5303456,
    "lng": -0.0561633
  },
  "berlin": {
    "shortName": "Berlin",
    "searchName": "Berlin",
    "displayName": "Berlin, Germany",
    "lat": 52.5173885,
    "lng": 13.3951309
  },
  "berlin airport": {
    "shortName": "Berlin Airport",
    "searchName": "Berlin Airport",
    "displayName": "Berlin Brandenburg Airport \"Willy Brandt\", LPG-Straße, Selchow, Schönefeld, Schenkendorf-Krummensee, Dahme-Spreewald, Brandenburg, 12529, Germany",
    "lat": 52.36593,
    "lng": 13.488641
  },
  "berlin hbf": {
    "shortName": "Berlin HBF",
    "searchName": "Berlin HBF",
    "displayName": "Berlin Hauptbahnhof, Washingtonplatz, Europacity, Moabit, Mitte, Berlin, 10557, Germany",
    "lat": 52.5250175,
    "lng": 13.369448
  },
  "birmingham": {
    "shortName": "Birmingham",
    "searchName": "Birmingham",
    "displayName": "Birmingham, West Midlands, England, United Kingdom",
    "lat": 52.4948994,
    "lng": -1.8518439
  },
  "birmingham new street": {
    "shortName": "Birmingham new street",
    "searchName": "Birmingham new street",
    "displayName": "Birmingham New Street, Station Street, Chinese Quarter, Rea Valley, Digbeth, Birmingham, West Midlands, England, B2 4QA, United Kingdom",
    "lat": 52.4776459,
    "lng": -1.898694
  },
  "bonaly": {
    "shortName": "Bonaly",
    "searchName": "Bonaly",
    "displayName": "Bonaly, Colinton, City of Edinburgh, Scotland, EH13 0EU, United Kingdom",
    "lat": 55.9008967,
    "lng": -3.2583444
  },
  "bonnyrig": {
    "shortName": "Bonnyrig",
    "searchName": "Bonnyrig",
    "displayName": "Bonnyrigg, Midlothian, Scotland, United Kingdom",
    "lat": 55.8751189,
    "lng": -3.1059076
  },
  "bothwell": {
    "shortName": "Bothwell",
    "searchName": "Bothwell",
    "displayName": "Bothwell, South Lanarkshire, Scotland, G71 8RB, United Kingdom",
    "lat": 55.8026551,
    "lng": -4.0676955
  },
  "bourg st maurice": {
    "shortName": "Bourg st Maurice",
    "searchName": "Bourg st Maurice",
    "displayName": "Bourg-Saint-Maurice, Albertville, Savoy, Auvergne-Rhône-Alpes, Metropolitan France, 73700, France",
    "lat": 45.6186105,
    "lng": 6.7695277
  },
  "bremen": {
    "shortName": "Bremen",
    "searchName": "Bremen",
    "displayName": "Bremen, Germany",
    "lat": 53.0758196,
    "lng": 8.8071646
  },
  "brig": {
    "shortName": "Brig",
    "searchName": "Brig",
    "displayName": "Brigue, Brigue-Glis, Brigue, Haut-Valais, Valais/Wallis, 3900, Switzerland",
    "lat": 46.3163457,
    "lng": 7.9879473
  },
  "bromly by bow": {
    "shortName": "bromly by bow",
    "searchName": "bromly by bow",
    "displayName": "Bromley-by-Bow, Blackwall Tunnel Northern Approach, Bromley-by-Bow, Poplar, London Borough of Tower Hamlets, Greater London, England, E3 3JJ, United Kingdom",
    "lat": 51.5246287,
    "lng": -0.0123189
  },
  "brussels": {
    "shortName": "Brussels",
    "searchName": "Brussels",
    "displayName": "Brussels, Brussels-Capital, Belgium",
    "lat": 50.8467372,
    "lng": 4.352493
  },
  "brussels charleroix": {
    "shortName": "Brussels charleroix",
    "searchName": "Brussels charleroix",
    "displayName": "Brussels South Charleroi Airport, 8, Rue des Frères Wright, Gosselies, Charleroi, Hainaut, Wallonia, 6041, Belgium",
    "lat": 50.4636373,
    "lng": 4.4661733
  },
  "camden town": {
    "shortName": "camden town",
    "searchName": "camden town",
    "displayName": "Camden Town, Greater London, England, NW1 8QL, United Kingdom",
    "lat": 51.5392533,
    "lng": -0.142757
  },
  "canada water": {
    "shortName": "canada water",
    "searchName": "canada water",
    "displayName": "Canada Water, Albatross Way, Canada Water, Rotherhithe, London Borough of Southwark, Greater London, England, SE16 7EA, United Kingdom",
    "lat": 51.4979299,
    "lng": -0.0498405
  },
  "canary warf": {
    "shortName": "canary warf",
    "searchName": "canary warf",
    "displayName": "Canary Wharf, Jubilee Park, Canary Wharf, London Borough of Tower Hamlets, Greater London, England, E14 5NY, United Kingdom",
    "lat": 51.5035036,
    "lng": -0.0186272
  },
  "carfin": {
    "shortName": "Carfin",
    "searchName": "Carfin",
    "displayName": "Carfin, North Lanarkshire, Scotland, ML1 4DF, United Kingdom",
    "lat": 55.8039476,
    "lng": -3.961024
  },
  "carlisle": {
    "shortName": "Carlisle",
    "searchName": "Carlisle",
    "displayName": "Carlisle, Cumberland, England, United Kingdom",
    "lat": 54.8948478,
    "lng": -2.9362311
  },
  "chambrey": {
    "shortName": "Chambrey",
    "searchName": "Chambrey",
    "displayName": "Chambéry, Savoy, Auvergne-Rhône-Alpes, Metropolitan France, 73000, France",
    "lat": 45.5662672,
    "lng": 5.9203636
  },
  "charnock richard": {
    "shortName": "Charnock Richard",
    "searchName": "Charnock Richard",
    "displayName": "Charnock Richard Services, M6, Welch Whittle, Charnock Richard, Chorley, Lancashire, England, PR7 5HG, United Kingdom",
    "lat": 53.6310965,
    "lng": -2.6916806
  },
  "ciranlarich": {
    "shortName": "Ciranlarich",
    "searchName": "Ciranlarich",
    "displayName": "Crianlarich, Stirling, Scotland, United Kingdom",
    "lat": 56.3926292,
    "lng": -4.6158939
  },
  "colonsay": {
    "shortName": "Colonsay",
    "searchName": "Colonsay",
    "displayName": "Colonsay, Scalasaig, Argyll and Bute, Scotland, United Kingdom",
    "lat": 56.0805863,
    "lng": -6.207996
  },
  "connel": {
    "shortName": "Connel",
    "searchName": "Connel",
    "displayName": "Connel, Argyll and Bute, Scotland, PA37 1PQ, United Kingdom",
    "lat": 56.4541596,
    "lng": -5.3858721
  },
  "copenhagen": {
    "shortName": "Copenhagen",
    "searchName": "Copenhagen",
    "displayName": "Copenhagen, Copenhagen Municipality, Capital Region of Denmark, 1357, Denmark",
    "lat": 55.6867243,
    "lng": 12.5700724
  },
  "cottbus": {
    "shortName": "Cottbus",
    "searchName": "Cottbus",
    "displayName": "Cottbus, Brandenburg, Germany",
    "lat": 51.7567447,
    "lng": 14.3357307
  },
  "craignure": {
    "shortName": "Craignure",
    "searchName": "Craignure",
    "displayName": "Craignure, Argyll and Bute, Scotland, United Kingdom",
    "lat": 56.4684076,
    "lng": -5.701166
  },
  "crewes street": {
    "shortName": "crewes street",
    "searchName": "crewes street",
    "displayName": "Crews Street, The Odyssey, Millwall, Isle of Dogs, London Borough of Tower Hamlets, Greater London, England, E14 3SP, United Kingdom",
    "lat": 51.4922636,
    "lng": -0.0255925
  },
  "crews street": {
    "shortName": "crews street",
    "searchName": "crews street",
    "displayName": "Crews Street, The Odyssey, Millwall, Isle of Dogs, London Borough of Tower Hamlets, Greater London, England, E14 3SP, United Kingdom",
    "lat": 51.4922636,
    "lng": -0.0255925
  },
  "crianlarich": {
    "shortName": "Crianlarich",
    "searchName": "Crianlarich",
    "displayName": "Crianlarich, Station Road, Inverardran, Crianlarich, Stirling, Scotland, FK20 8QQ, United Kingdom",
    "lat": 56.3903333,
    "lng": -4.6184447
  },
  "culembourg": {
    "shortName": "culembourg",
    "searchName": "culembourg",
    "displayName": "Culembourg, Gelderland, Netherlands",
    "lat": 51.9573504,
    "lng": 5.2253042
  },
  "culeomborug": {
    "shortName": "culeomborug",
    "searchName": "culeomborug",
    "displayName": "Culemborg, Gelderland, Netherlands",
    "lat": 51.9573504,
    "lng": 5.2253042
  },
  "dalkeith": {
    "shortName": "Dalkeith",
    "searchName": "Dalkeith",
    "displayName": "Dalkeith, Midlothian, Scotland, EH22 1HZ, United Kingdom",
    "lat": 55.8943361,
    "lng": -3.0700445
  },
  "dalmaly": {
    "shortName": "Dalmaly",
    "searchName": "Dalmaly",
    "displayName": "Dalmally, Dalmally Village Loop Road, Dalmally, Argyll and Bute, Scotland, United Kingdom",
    "lat": 56.4009781,
    "lng": -4.9825597
  },
  "dalmeny": {
    "shortName": "dalmeny",
    "searchName": "dalmeny",
    "displayName": "Dalmeny, Station Road, Scotstoun, City of Edinburgh, Scotland, EH30 9JU, United Kingdom",
    "lat": 55.9862498,
    "lng": -3.3815031
  },
  "devenenter": {
    "shortName": "Devenenter",
    "searchName": "Devenenter",
    "displayName": "Deventer, Overijssel, Netherlands",
    "lat": 52.2694897,
    "lng": 6.2364886
  },
  "deventer": {
    "shortName": "Deventer",
    "searchName": "Deventer",
    "displayName": "Deventer, Overijssel, Netherlands",
    "lat": 52.2694897,
    "lng": 6.2364886
  },
  "dordtrecht": {
    "shortName": "dordtrecht",
    "searchName": "dordtrecht",
    "displayName": "Dordrecht, South Holland, Netherlands",
    "lat": 51.814429,
    "lng": 4.6692438
  },
  "dortrecht": {
    "shortName": "dortrecht",
    "searchName": "dortrecht",
    "displayName": "Dortrecht Alle, Nøragersminde, Tårnby, Tårnby Municipality, Capital Region of Denmark, 2770, Denmark",
    "lat": 55.594645,
    "lng": 12.578766
  },
  "dreghorn": {
    "shortName": "Dreghorn",
    "searchName": "Dreghorn",
    "displayName": "Dreghorn, Bonaly, Fairmilehead, City of Edinburgh, Scotland, EH13 9PN, United Kingdom",
    "lat": 55.9036421,
    "lng": -3.2327199
  },
  "duisberg": {
    "shortName": "duisberg",
    "searchName": "duisberg",
    "displayName": "Duisberg, Barredamm, Grünholz, Sterup, Geltinger Bucht, Kreis Schleswig-Flensburg, Schleswig-Holstein, 24996, Germany",
    "lat": 54.7211898,
    "lng": 9.7696365
  },
  "dundee": {
    "shortName": "Dundee",
    "searchName": "Dundee",
    "displayName": "Dundee, Dundee City, Scotland, DD1 1SA, United Kingdom",
    "lat": 56.4605938,
    "lng": -2.97019
  },
  "dunkeld": {
    "shortName": "Dunkeld",
    "searchName": "Dunkeld",
    "displayName": "Dunkeld, Perth and Kinross, Scotland, PH8 0AJ, United Kingdom",
    "lat": 56.5655711,
    "lng": -3.5862546
  },
  "dunkled": {
    "shortName": "dunkled",
    "searchName": "Dunkeld, Scotland",
    "displayName": "Dunkeld, Perth and Kinross, Scotland, PH8 0AJ, United Kingdom",
    "lat": 56.5655711,
    "lng": -3.5862546
  },
  "dunnon": {
    "shortName": "Dunnon",
    "searchName": "Dunnon",
    "displayName": "Dunoon, Argyll and Bute, Scotland, PA23 7HG, United Kingdom",
    "lat": 55.9481104,
    "lng": -4.9244868
  },
  "dusseldorf": {
    "shortName": "Dusseldorf",
    "searchName": "Dusseldorf",
    "displayName": "Dusseldorf, North Rhine-Westphalia, Germany",
    "lat": 51.2254018,
    "lng": 6.7763137
  },
  "earls court": {
    "shortName": "earls court",
    "searchName": "earls court",
    "displayName": "Former Earls Court Exhibition Centre, Lot's Village, Earl's Court, Royal Borough of Kensington and Chelsea, Greater London, England, United Kingdom",
    "lat": 51.4887969,
    "lng": -0.1982204
  },
  "edgeware road": {
    "shortName": "edgeware road",
    "searchName": "edgeware road",
    "displayName": "Edgeware Road Station, Marylebone Flyover, Paddington, City of Westminster, Greater London, England, W2 1JU, United Kingdom",
    "lat": 51.5199628,
    "lng": -0.1698121
  },
  "ediairport": {
    "shortName": "Ediairport",
    "searchName": "Ediairport",
    "displayName": "Edinburgh Airport, Jubilee Road, Ingliston, Ratho Station, City of Edinburgh, Scotland, EH12 9FS, United Kingdom",
    "lat": 55.950257,
    "lng": -3.3593859
  },
  "edinburgh": {
    "shortName": "Edinburgh",
    "searchName": "Edinburgh",
    "displayName": "City of Edinburgh, Scotland, United Kingdom",
    "lat": 55.9533456,
    "lng": -3.1883749
  },
  "edinburgh bus station": {
    "shortName": "Edinburgh bus station",
    "searchName": "Edinburgh bus station",
    "displayName": "Edinburgh Bus Station, North Clyde Street Lane, Gayfield, Broughton, New Town/Broughton, City of Edinburgh, Scotland, EH1 3EB, United Kingdom",
    "lat": 55.955343,
    "lng": -3.1915363
  },
  "efteling": {
    "shortName": "Efteling",
    "searchName": "Efteling",
    "displayName": "Efteling, 1, Europalaan, Prinsessenbuurt, Oost, Kaatsheuvel, Loon op Zand, North Brabant, Netherlands, 5171 KW, Netherlands",
    "lat": 51.6499584,
    "lng": 5.0477212
  },
  "esch": {
    "shortName": "Esch",
    "searchName": "Esch",
    "displayName": "Esch, Wittlich-Land, Landkreis Bernkastel-Wittlich, Rhineland-Palatinate, Germany",
    "lat": 49.8975651,
    "lng": 6.8502714
  },
  "ettlebruck": {
    "shortName": "Ettlebruck",
    "searchName": "Ettlebruck",
    "displayName": "Ettelbruck, Canton Diekirch, Luxembourg",
    "lat": 49.8470016,
    "lng": 6.0984659
  },
  "falkirk": {
    "shortName": "Falkirk",
    "searchName": "Falkirk",
    "displayName": "Falkirk, Scotland, United Kingdom",
    "lat": 55.9991959,
    "lng": -3.784376
  },
  "falkrik": {
    "shortName": "Falkrik",
    "searchName": "Falkrik",
    "displayName": "Falkirk, Falkirk, Scotland, United Kingdom",
    "lat": 55.9991959,
    "lng": -3.784376
  },
  "finchly road": {
    "shortName": "finchly road",
    "searchName": "finchly road",
    "displayName": "Finchley Road, Canfield Place, Swiss Cottage, South Hampstead, London Borough of Camden, Greater London, England, NW6 3BT, United Kingdom",
    "lat": 51.5472307,
    "lng": -0.1806964
  },
  "finsbury park": {
    "shortName": "Finsbury Park",
    "searchName": "Finsbury Park",
    "displayName": "Finsbury Park, Spiral 4 Southbound, Finsbury Park, London Borough of Islington, Greater London, England, N4 2DH, United Kingdom",
    "lat": 51.5648345,
    "lng": -0.1064144
  },
  "geldermalsen": {
    "shortName": "Geldermalsen",
    "searchName": "Geldermalsen",
    "displayName": "Geldermalsen, Genteldijk, Stationswijk, Geldermalsen, West Betuwe, Gelderland, Netherlands, 4191 LD, Netherlands",
    "lat": 51.8825577,
    "lng": 5.2714789
  },
  "geldermasen": {
    "shortName": "Geldermasen",
    "searchName": "Geldermasen",
    "displayName": "Geldermalsen, Genteldijk, Geldermalsen, Gelderland, Netherlands",
    "lat": 51.8825577,
    "lng": 5.2714789
  },
  "geneva": {
    "shortName": "Geneva",
    "searchName": "Geneva",
    "displayName": "Geneva, Switzerland",
    "lat": 46.2017559,
    "lng": 6.1466014
  },
  "gladgow": {
    "shortName": "Gladgow",
    "searchName": "Glasgow, Scotland",
    "displayName": "Glasgow, Glasgow City, Scotland, G2 1AR, United Kingdom",
    "lat": 55.861155,
    "lng": -4.2501687
  },
  "glasgow": {
    "shortName": "glasgow",
    "searchName": "glasgow",
    "displayName": "Glasgow, Glasgow City, Scotland, G2 1AR, United Kingdom",
    "lat": 55.861155,
    "lng": -4.2501687
  },
  "gogar": {
    "shortName": "Gogar",
    "searchName": "Gogar",
    "displayName": "Gogar, City of Edinburgh, Scotland, EH12 9BR, United Kingdom",
    "lat": 55.9380228,
    "lng": -3.3332796
  },
  "golders green": {
    "shortName": "golders green",
    "searchName": "golders green",
    "displayName": "Golders Green, London Borough of Barnet, Greater London, England, NW11 8LH, United Kingdom",
    "lat": 51.5718577,
    "lng": -0.1954797
  },
  "gorgar": {
    "shortName": "Gorgar",
    "searchName": "Gogar, Edinburgh, Scotland",
    "displayName": "Gogar, City of Edinburgh, Scotland, EH12 9BR, United Kingdom",
    "lat": 55.9380228,
    "lng": -3.3332796
  },
  "gorichem": {
    "shortName": "Gorichem",
    "searchName": "Gorichem",
    "displayName": "Gyros Gorichem, 1, Molenstraat, Binnenstad, Gorinchem, South Holland, Netherlands, 4201 CV, Netherlands",
    "lat": 51.8293684,
    "lng": 4.9750527
  },
  "gorock": {
    "shortName": "Gorock",
    "searchName": "Gorock",
    "displayName": "Gourock, Inverclyde, Scotland, PA19 1QU, United Kingdom",
    "lat": 55.9620009,
    "lng": -4.8178728
  },
  "goruck": {
    "shortName": "Goruck",
    "searchName": "Goruck",
    "displayName": "Gourock, Inverclyde, Scotland, PA19 1QU, United Kingdom",
    "lat": 55.9620009,
    "lng": -4.8178728
  },
  "grevels": {
    "shortName": "GREVELS",
    "searchName": "GREVELS",
    "displayName": "Grevels, Grosbous-Wahl, Canton Redange, 8818, Luxembourg",
    "lat": 49.8514998,
    "lng": 5.9136079
  },
  "haarlem": {
    "shortName": "haarlem",
    "searchName": "haarlem",
    "displayName": "Haarlem, North Holland, Netherlands",
    "lat": 52.3885317,
    "lng": 4.6388048
  },
  "haggerston": {
    "shortName": "Haggerston",
    "searchName": "Haggerston",
    "displayName": "Haggerston, Lee Street, De Beauvoir Town, Haggerston, London Borough of Hackney, Greater London, England, E8 4DY, United Kingdom",
    "lat": 51.5386574,
    "lng": -0.0755835
  },
  "hamilton": {
    "shortName": "Hamilton",
    "searchName": "Hamilton",
    "displayName": "Hamilton, South Lanarkshire, Scotland, ML3 7AW, United Kingdom",
    "lat": 55.7759095,
    "lng": -4.033442
  },
  "hammersmith": {
    "shortName": "hammersmith",
    "searchName": "hammersmith",
    "displayName": "Hammersmith, London Borough of Hammersmith and Fulham, Greater London, England, W6 9YD, United Kingdom",
    "lat": 51.4920377,
    "lng": -0.2236401
  },
  "hanover": {
    "shortName": "hanover",
    "searchName": "hanover",
    "displayName": "Hanover, Région de Hanovre, Lower Saxony, Germany",
    "lat": 52.3744779,
    "lng": 9.7385532
  },
  "heispelt": {
    "shortName": "HEISPELT",
    "searchName": "HEISPELT",
    "displayName": "Heispelt, Grosbous-Wahl, Canton Redange, 8819, Luxembourg",
    "lat": 49.8564149,
    "lng": 5.8790841
  },
  "hetreten": {
    "shortName": "hetreten",
    "searchName": "hetreten",
    "displayName": "Heteren, Gelderland, Netherlands",
    "lat": 51.9554341,
    "lng": 5.7573215
  },
  "hetreten, netherlands": {
    "shortName": "hetreten, netherlands",
    "searchName": "hetreten, netherlands",
    "displayName": "Heteren, Gelderland, Netherlands",
    "lat": 51.9554341,
    "lng": 5.7573215
  },
  "hitch": {
    "shortName": "Hitch",
    "searchName": "Hitch",
    "displayName": "Dalmeny, Station Road, Scotstoun, City of Edinburgh, Scotland, EH30 9JU, United Kingdom",
    "lat": 55.9862498,
    "lng": -3.3815031
  },
  "hoxton": {
    "shortName": "hoxton",
    "searchName": "hoxton",
    "displayName": "Hoxton, London Borough of Hackney, Greater London, England, N1 6TJ, United Kingdom",
    "lat": 51.5323935,
    "lng": -0.086078
  },
  "hynland": {
    "shortName": "Hynland",
    "searchName": "Hynland",
    "displayName": "Hyndland, Glasgow, Glasgow City, Scotland, G12 9PP, United Kingdom",
    "lat": 55.8785625,
    "lng": -4.3087116
  },
  "inverary, scotland": {
    "shortName": "inverary, scotland",
    "searchName": "inverary, scotland",
    "displayName": "Inveraray, Argyll and Bute, Scotland, PA32 8TT, United Kingdom",
    "lat": 56.2303491,
    "lng": -5.0730947
  },
  "island gardens": {
    "shortName": "island gardens",
    "searchName": "island gardens",
    "displayName": "Island Gardens, Manchester Road, Manchester Estate, Cubitt Town, Isle of Dogs, London Borough of Tower Hamlets, Greater London, England, E14 3FA, United Kingdom",
    "lat": 51.4880683,
    "lng": -0.0105052
  },
  "juniper green": {
    "shortName": "Juniper Green",
    "searchName": "Juniper Green",
    "displayName": "Juniper Green, City of Edinburgh, Scotland, United Kingdom",
    "lat": 55.9052885,
    "lng": -3.2841089
  },
  "kelvingrove": {
    "shortName": "Kelvingrove",
    "searchName": "Kelvingrove",
    "displayName": "Kelvingrove, Glasgow, Glasgow City, Scotland, G3 7NT, United Kingdom",
    "lat": 55.8662857,
    "lng": -4.2812453
  },
  "kenacraig": {
    "shortName": "Kenacraig",
    "searchName": "Kenacraig",
    "displayName": "Kennacraig, Argyll and Bute, Scotland, United Kingdom",
    "lat": 55.8004361,
    "lng": -5.4736403
  },
  "kennacraig": {
    "shortName": "Kennacraig",
    "searchName": "Kennacraig",
    "displayName": "Kennacraig, Argyll and Bute, Scotland, PA29 6YX, United Kingdom",
    "lat": 55.8004361,
    "lng": -5.4736403
  },
  "kircaldy": {
    "shortName": "kircaldy",
    "searchName": "kircaldy",
    "displayName": "Kirkcaldy, Fife, Scotland, KY1 1JA, United Kingdom",
    "lat": 56.1110218,
    "lng": -3.1582296
  },
  "konigswusterhausen": {
    "shortName": "Konigswusterhausen",
    "searchName": "Konigswusterhausen",
    "displayName": "Königs Wusterhausen, Schenkendorf-Krummensee, Dahme-Spreewald, Brandenburg, Germany",
    "lat": 52.2994511,
    "lng": 13.6244389
  },
  "konz": {
    "shortName": "konz",
    "searchName": "konz",
    "displayName": "Konz, Landkreis Trier-Saarburg, Rhineland-Palatinate, Germany",
    "lat": 49.6984949,
    "lng": 6.5736454
  },
  "largs": {
    "shortName": "Largs",
    "searchName": "Largs",
    "displayName": "Largs, North Ayrshire, Scotland, KA30 8LX, United Kingdom",
    "lat": 55.7948829,
    "lng": -4.8695014
  },
  "leciter": {
    "shortName": "Leciter",
    "searchName": "Leciter",
    "displayName": "Leicester, City of Leicester, England, United Kingdom",
    "lat": 52.6362,
    "lng": -1.1331969
  },
  "leicter": {
    "shortName": "Leicter",
    "searchName": "Leicter",
    "displayName": "Leicester, City of Leicester, England, LE1 4FB, United Kingdom",
    "lat": 52.6362,
    "lng": -1.1331969
  },
  "leiden": {
    "shortName": "Leiden",
    "searchName": "Leiden",
    "displayName": "Leyde, South Holland, Netherlands",
    "lat": 52.1594747,
    "lng": 4.4908843
  },
  "leidschendam": {
    "shortName": "Leidschendam",
    "searchName": "Leidschendam",
    "displayName": "Leidschendam, Leidschendam-Voorburg, South Holland, Netherlands",
    "lat": 52.0861654,
    "lng": 4.3946774
  },
  "leipzig": {
    "shortName": "leipzig",
    "searchName": "leipzig",
    "displayName": "Leipzig, Saxony, Germany",
    "lat": 51.3406321,
    "lng": 12.3747329
  },
  "liiege": {
    "shortName": "Liiege",
    "searchName": "Liiege",
    "displayName": "Liège, Wallonia, Belgium",
    "lat": 50.4708135,
    "lng": 5.7735658
  },
  "lisa parents": {
    "shortName": "lisa parents",
    "searchName": "lisa parents",
    "displayName": "Bleiswijk, Lansingerland, South Holland, Netherlands",
    "lat": 52.0109579,
    "lng": 4.5310837
  },
  "lisas parents": {
    "shortName": "lisa parents",
    "searchName": "lisa parents",
    "displayName": "Bleiswijk, Lansingerland, South Holland, Netherlands",
    "lat": 52.0109579,
    "lng": 4.5310837
  },
  "livingston north": {
    "shortName": "Livingston North",
    "searchName": "Livingston North",
    "displayName": "Livingston North, Railway Path South, Eliburn, Livingston, West Lothian, Scotland, EH54 7EF, United Kingdom",
    "lat": 55.9015081,
    "lng": -3.5436081
  },
  "lochnell": {
    "shortName": "lochnell",
    "searchName": "lochnell",
    "displayName": "Lochnell House, C26, Baravullin, Benderloch, Argyll and Bute, Scotland, PA37 1SA, United Kingdom",
    "lat": 56.4952488,
    "lng": -5.4356337
  },
  "london": {
    "shortName": "london",
    "searchName": "london",
    "displayName": "Greater London, England, United Kingdom",
    "lat": 51.5074456,
    "lng": -0.1277653
  },
  "lubben": {
    "shortName": "Lubben",
    "searchName": "Lübben, Germany",
    "displayName": "Lübben (Spreewald), Dahme-Spreewald, Brandenburg, 15907, Germany",
    "lat": 51.9418987,
    "lng": 13.8963805
  },
  "lübben": {
    "shortName": "Lübben",
    "searchName": "Lübben",
    "displayName": "Lübben (Spreewald), Dahme-Spreewald, Brandenburg, 15907, Germany",
    "lat": 51.9418987,
    "lng": 13.8963805
  },
  "luton airport": {
    "shortName": "luton airport",
    "searchName": "luton airport",
    "displayName": "London Luton Airport, New Airport Way, Hart Hill, Luton, Borough of Luton, England, LU2 9LY, United Kingdom",
    "lat": 51.8781015,
    "lng": -0.3664255
  },
  "luxembourg": {
    "shortName": "Luxembourg",
    "searchName": "Luxembourg",
    "displayName": "Luxembourg",
    "lat": 49.8158683,
    "lng": 6.1296751
  },
  "lymm services": {
    "shortName": "Lymm services",
    "searchName": "Lymm services",
    "displayName": "Lymm Services, Cliff Lane, Lymm, Warrington, England, WA13 0SP, United Kingdom",
    "lat": 53.3583849,
    "lng": -2.5041135
  },
  "m.gladbach": {
    "shortName": "M.gladbach",
    "searchName": "M.gladbach",
    "displayName": "Mönchengladbach, North Rhine-Westphalia, Germany",
    "lat": 51.1947131,
    "lng": 6.4353792
  },
  "maastrict": {
    "shortName": "Maastrict",
    "searchName": "Maastrict",
    "displayName": "Maastricht, Limburg, Netherlands",
    "lat": 50.8579855,
    "lng": 5.6969882
  },
  "madurodam": {
    "shortName": "Madurodam",
    "searchName": "Madurodam",
    "displayName": "Madurodam, 1, George Maduroplein, Schéveningue, The Hague, South Holland, Netherlands, 2584 RZ, Netherlands",
    "lat": 52.0995368,
    "lng": 4.2973837
  },
  "manchester airport": {
    "shortName": "Manchester Airport",
    "searchName": "Manchester Airport",
    "displayName": "Manchester Airport, Enterprise Way, Woodhouse Park, Wythenshawe, Manchester, Greater Manchester, England, M90 1QX, United Kingdom",
    "lat": 53.350342,
    "lng": -2.2803693
  },
  "manheim": {
    "shortName": "Manheim",
    "searchName": "Manheim",
    "displayName": "Manheim, Kerpen, Rhein-Erft-Kreis, North Rhine-Westphalia, 50171, Germany",
    "lat": 50.8699668,
    "lng": 6.6612918
  },
  "meadvale": {
    "shortName": "Meadvale",
    "searchName": "Meadvale",
    "displayName": "Meadvale Road, Knighton, Leicester, City of Leicester, England, LE2 3YD, United Kingdom",
    "lat": 52.6047171,
    "lng": -1.1150843
  },
  "mertzig": {
    "shortName": "mertzig",
    "searchName": "mertzig",
    "displayName": "Mertzig, Canton Diekirch, Luxembourg",
    "lat": 49.8309168,
    "lng": 6.0041083
  },
  "milton keans": {
    "shortName": "Milton keans",
    "searchName": "Milton keans",
    "displayName": "Milton Keynes, City of Milton Keynes, England, United Kingdom",
    "lat": 52.0406502,
    "lng": -0.7594092
  },
  "monument": {
    "shortName": "monument",
    "searchName": "monument",
    "displayName": "Monument, Eastcheap, Leadenhall Market, Monument, City of London, Greater London, England, EC4R 9AA, United Kingdom",
    "lat": 51.5106328,
    "lng": -0.0861271
  },
  "monumne": {
    "shortName": "monumne",
    "searchName": "monumne",
    "displayName": "Monument Station, Talbot Court, Leadenhall Market, Monument, City of London, Greater London, England, EC3M 1BN, United Kingdom",
    "lat": 51.5107942,
    "lng": -0.0849072
  },
  "newingtion": {
    "shortName": "newingtion",
    "searchName": "newingtion",
    "displayName": "Newington, City of Edinburgh, Scotland, United Kingdom",
    "lat": 55.9328287,
    "lng": -3.1732062
  },
  "north grenwich": {
    "shortName": "north grenwich",
    "searchName": "north grenwich",
    "displayName": "North Greenwich, Peninsula Square, Greenwich Peninsula, Royal Borough of Greenwich, Greater London, England, SE10 0EN, United Kingdom",
    "lat": 51.500574,
    "lng": 0.0043201
  },
  "oadby": {
    "shortName": "Oadby",
    "searchName": "Oadby",
    "displayName": "Oadby & Leicester Gymnastics Club, 17, Mandervell Road, Oadby, Leicester, Leicestershire, England, LE2 5LR, United Kingdom",
    "lat": 52.597803,
    "lng": -1.0939294
  },
  "oban": {
    "shortName": "Oban",
    "searchName": "Oban",
    "displayName": "Oban, Argyll and Bute, Scotland, PA34 4AT, United Kingdom",
    "lat": 56.4120166,
    "lng": -5.4723731
  },
  "oslo": {
    "shortName": "Oslo",
    "searchName": "Oslo",
    "displayName": "Oslo, Norway",
    "lat": 59.9133301,
    "lng": 10.7389701
  },
  "osnabruck": {
    "shortName": "osnabruck",
    "searchName": "osnabruck",
    "displayName": "Osnabrück, Lower Saxony, Germany",
    "lat": 52.2719595,
    "lng": 8.047635
  },
  "paddington": {
    "shortName": "paddington",
    "searchName": "paddington",
    "displayName": "Paddington, City of Westminster, Greater London, England, W2 1HU, United Kingdom",
    "lat": 51.5161629,
    "lng": -0.1744856
  },
  "paris": {
    "shortName": "Paris",
    "searchName": "Paris",
    "displayName": "Paris, Ile-de-France, Metropolitan France, France",
    "lat": 48.8588897,
    "lng": 2.320041
  },
  "partick": {
    "shortName": "Partick",
    "searchName": "Partick",
    "displayName": "Partick, Glasgow, Glasgow City, Scotland, G11 5LW, United Kingdom",
    "lat": 55.8714897,
    "lng": -4.3087197
  },
  "perth": {
    "shortName": "Perth",
    "searchName": "Perth",
    "displayName": "Perth, Perth and Kinross, Scotland, PH1 5TZ, United Kingdom",
    "lat": 56.3958757,
    "lng": -3.4303103
  },
  "peterborugh": {
    "shortName": "Peterborugh",
    "searchName": "Peterborugh",
    "displayName": "Peterborough, Cambridgeshire, Cambridgeshire and Peterborough, England, PE1 1XH, United Kingdom",
    "lat": 52.5725769,
    "lng": -0.2427336
  },
  "pitlochry": {
    "shortName": "pitlochry",
    "searchName": "pitlochry",
    "displayName": "Pitlochry, Perth and Kinross, Scotland, PH16 5BX, United Kingdom",
    "lat": 56.701969,
    "lng": -3.7306846
  },
  "prague": {
    "shortName": "Prague",
    "searchName": "Prague",
    "displayName": "Prague, Czechia",
    "lat": 50.0874654,
    "lng": 14.4212535
  },
  "preisthill": {
    "shortName": "Preisthill",
    "searchName": "Preisthill",
    "displayName": "Priesthill, Glasgow, Glasgow City, Scotland, G53 6QA, United Kingdom",
    "lat": 55.8165314,
    "lng": -4.3473144
  },
  "preston": {
    "shortName": "Preston",
    "searchName": "Preston",
    "displayName": "Preston, Lancashire, England, PR1 2AR, United Kingdom",
    "lat": 53.7593363,
    "lng": -2.6992717
  },
  "pristhill": {
    "shortName": "Pristhill",
    "searchName": "Pristhill",
    "displayName": "Priesthill, Glasgow, Glasgow City, Scotland, United Kingdom",
    "lat": 55.8165314,
    "lng": -4.3473144
  },
  "ravelstraat": {
    "shortName": "Ravelstraat",
    "searchName": "Ravelstraat",
    "displayName": "Ravelstraat, Fortuinwijk, Bos- en Gasthuizen, Leyde, South Holland, Netherlands, 2324 XZ, Netherlands",
    "lat": 52.1452896,
    "lng": 4.4702707
  },
  "roodt-sur-syre": {
    "shortName": "ROODT-SUR-SYRE",
    "searchName": "ROODT-SUR-SYRE",
    "displayName": "Roodt-sur-Syre, Betzdorf, Canton Grevenmacher, 6914, Luxembourg",
    "lat": 49.6655564,
    "lng": 6.3020341
  },
  "rotterdam": {
    "shortName": "rotterdam",
    "searchName": "rotterdam",
    "displayName": "Rotterdam, South Holland, Netherlands",
    "lat": 51.9244424,
    "lng": 4.47775
  },
  "s hertengo": {
    "shortName": "s hertengo",
    "searchName": "s hertengo",
    "displayName": "Bois-le-Duc, North Brabant, Netherlands",
    "lat": 51.6889387,
    "lng": 5.303116
  },
  "saarbrucken": {
    "shortName": "Saarbrucken",
    "searchName": "Saarbrucken",
    "displayName": "Sarrebruck, Communauté régionale de Sarrebruck, Saarland, Germany",
    "lat": 49.234362,
    "lng": 6.996379
  },
  "salem": {
    "shortName": "Salem",
    "searchName": "Salem",
    "displayName": "Salen, Argyll and Bute, Scotland, PA72 6JQ, United Kingdom",
    "lat": 56.5167795,
    "lng": -5.9474853
  },
  "sarrbrucken": {
    "shortName": "Sarrbrucken",
    "searchName": "Sarrbrucken",
    "displayName": "Sarrebruck, Communauté régionale de Sarrebruck, Saarland, Germany",
    "lat": 49.234362,
    "lng": 6.996379
  },
  "scalasaig": {
    "shortName": "scalasaig",
    "searchName": "scalasaig",
    "displayName": "Scalasaig, Argyll and Bute, Scotland, PA61 7YT, United Kingdom",
    "lat": 56.0696324,
    "lng": -6.1885841
  },
  "scalasiaig": {
    "shortName": "Scalasiaig",
    "searchName": "Scalasiaig",
    "displayName": "Scalasaig, Argyll and Bute, Scotland, United Kingdom",
    "lat": 56.0696324,
    "lng": -6.1885841
  },
  "scalsaig": {
    "shortName": "Scalsaig",
    "searchName": "Scalsaig",
    "displayName": "Scalasaig, Argyll and Bute, Scotland, United Kingdom",
    "lat": 56.0696324,
    "lng": -6.1885841
  },
  "senningerberg": {
    "shortName": "SENNINGERBERG",
    "searchName": "SENNINGERBERG",
    "displayName": "Senningerberg, Niederanven, Canton Luxembourg, 1245, Luxembourg",
    "lat": 49.649554,
    "lng": 6.2262751
  },
  "shedwick": {
    "shortName": "Shedwick",
    "searchName": "Shedwick",
    "displayName": "Smethwick Galton Bridge, Oldbury Road, Galton Village, Smethwick, Sandwell, West Midlands, England, B66 1HU, United Kingdom",
    "lat": 52.5021195,
    "lng": -1.9804372
  },
  "shopping": {
    "shortName": "shopping",
    "searchName": "shopping",
    "displayName": "Rotterdam, South Holland, Netherlands",
    "lat": 51.9244424,
    "lng": 4.47775
  },
  "shordich highstreet": {
    "shortName": "shordich highstreet",
    "searchName": "shordich highstreet",
    "displayName": "Shoreditch High Street, Bethnal Green Road, Shoreditch, London Borough of Hackney, Greater London, England, E1 6GY, United Kingdom",
    "lat": 51.5232497,
    "lng": -0.0760735
  },
  "southport": {
    "shortName": "Southport",
    "searchName": "Southport",
    "displayName": "Southport, Sefton, Liverpool City Region, England, PR9 0AG, United Kingdom",
    "lat": 53.6487421,
    "lng": -3.0044972
  },
  "spiez": {
    "shortName": "spiez",
    "searchName": "spiez",
    "displayName": "Spiez, Frutigen-Niedersimmental administrative district, Oberland administrative region, Bern, Switzerland",
    "lat": 46.6919473,
    "lng": 7.6774655
  },
  "stafford services": {
    "shortName": "Stafford services",
    "searchName": "Stafford services",
    "displayName": "RoadChef Stafford South Services, M6, Stone Rural, Great Bridgeford, Stafford, Staffordshire, England, ST15 0XE, United Kingdom",
    "lat": 52.8725895,
    "lng": -2.1617299
  },
  "stirling": {
    "shortName": "Stirling",
    "searchName": "Stirling",
    "displayName": "Stirling, Scotland, FK8 2DD, United Kingdom",
    "lat": 56.1181242,
    "lng": -3.9360012
  },
  "stirling train": {
    "shortName": "Stirling Train",
    "searchName": "Stirling Train",
    "displayName": "Stirling, Scotland, FK8 2DD, United Kingdom",
    "lat": 56.1181242,
    "lng": -3.9360012
  },
  "stratford": {
    "shortName": "Stratford",
    "searchName": "Stratford",
    "displayName": "Stratford, Meridian Square, Stratford, London Borough of Newham, Greater London, England, E15 1DA, United Kingdom",
    "lat": 51.541289,
    "lng": -0.0035472
  },
  "taynuillt": {
    "shortName": "Taynuillt",
    "searchName": "Taynuilt, Scotland",
    "displayName": "Taynuilt, Lagan, Airds, Airds Bay, Taynuilt, Argyll and Bute, Scotland, PA35 1JY, United Kingdom",
    "lat": 56.4308516,
    "lng": -5.2398162
  },
  "taynuilt": {
    "shortName": "Taynuilt",
    "searchName": "Taynuilt",
    "displayName": "Taynuilt, Lagan, Airds, Airds Bay, Taynuilt, Argyll and Bute, Scotland, PA35 1JY, United Kingdom",
    "lat": 56.4308516,
    "lng": -5.2398162
  },
  "teil": {
    "shortName": "Teil",
    "searchName": "Teil",
    "displayName": "Tiel, Tiel, Gelderland, Netherlands",
    "lat": 51.8924253,
    "lng": 5.4304382
  },
  "the hague": {
    "shortName": "The Hague",
    "searchName": "The Hague",
    "displayName": "The Hague, South Holland, Netherlands",
    "lat": 52.0749456,
    "lng": 4.2696802
  },
  "the hauge": {
    "shortName": "The Hauge",
    "searchName": "The Hauge",
    "displayName": "The Hague, South Holland, Netherlands",
    "lat": 52.0799838,
    "lng": 4.3113461
  },
  "tiel": {
    "shortName": "tiel",
    "searchName": "tiel",
    "displayName": "Tiel, Gelderland, Netherlands",
    "lat": 51.8874333,
    "lng": 5.4372681
  },
  "tiel, nethalnds": {
    "shortName": "Tiel, Nethalnds",
    "searchName": "Tiel, Nethalnds",
    "displayName": "Tiel, Tiel, Gelderland, Netherlands",
    "lat": 51.8924253,
    "lng": 5.4304382
  },
  "tignes": {
    "shortName": "Tignes",
    "searchName": "Tignes",
    "displayName": "Tignes, Albertville, Savoy, Auvergne-Rhône-Alpes, Metropolitan France, 73320, France",
    "lat": 45.4697293,
    "lng": 6.907594
  },
  "tombreck": {
    "shortName": "Tombreck",
    "searchName": "Tombreck",
    "displayName": "Tombreck, Perth and Kinross, Scotland, PH15 2PB, United Kingdom",
    "lat": 56.5110228,
    "lng": -4.1933822
  },
  "totenem court road": {
    "shortName": "totenem court road",
    "searchName": "totenem court road",
    "displayName": "Tottenham Court Road, Oxford Street, East Marylebone, Covent Garden, City of Westminster, Greater London, England, W1D 2DR, United Kingdom",
    "lat": 51.5163847,
    "lng": -0.1309793
  },
  "tundrum": {
    "shortName": "tundrum",
    "searchName": "Tyndrum, Scotland",
    "displayName": "Tyndrum, Stirling, Scotland, FK20 8RY, United Kingdom",
    "lat": 56.4359066,
    "lng": -4.711694
  },
  "tyndrum": {
    "shortName": "tyndrum",
    "searchName": "tyndrum",
    "displayName": "Tyndrum, Stirling, Scotland, FK20 8RY, United Kingdom",
    "lat": 56.4359066,
    "lng": -4.711694
  },
  "uterecht": {
    "shortName": "Uterecht",
    "searchName": "Uterecht",
    "displayName": "Utrecht, Netherlands",
    "lat": 52.0907006,
    "lng": 5.1215634
  },
  "utrecht": {
    "shortName": "utrecht",
    "searchName": "utrecht",
    "displayName": "Utrecht, Netherlands",
    "lat": 52.0907006,
    "lng": 5.1215634
  },
  "valen": {
    "shortName": "Valen",
    "searchName": "Valen",
    "displayName": "Venlo, Limburg, Netherlands",
    "lat": 51.3924489,
    "lng": 6.1511724
  },
  "van de medelveg": {
    "shortName": "van de medelveg",
    "searchName": "van de medelveg",
    "displayName": "Van der Madeweg, Van der Madeweg, Amsterdam-Duivendrecht, North Holland, Netherlands",
    "lat": 52.3294483,
    "lng": 4.9305189
  },
  "van de medelweg": {
    "shortName": "van de medelweg",
    "searchName": "van de medelweg",
    "displayName": "Van der Madeweg, Amstel Business Park, Amstelvoorde, Amsterdam-Duivendrecht, Ouder-Amstel, North Holland, Netherlands, 1114 AK, Netherlands",
    "lat": 52.3294483,
    "lng": 4.9305189
  },
  "victoria": {
    "shortName": "victoria",
    "searchName": "victoria",
    "displayName": "London Victoria station, Wilton Road, Victoria, City of Westminster, Greater London, England, SW1V 1JU, United Kingdom",
    "lat": 51.4950525,
    "lng": -0.1448455
  },
  "wageningen": {
    "shortName": "wageningen",
    "searchName": "wageningen",
    "displayName": "Wageningen, Gelderland, Netherlands",
    "lat": 51.9663016,
    "lng": 5.6662814
  },
  "walferdange": {
    "shortName": "Walferdange",
    "searchName": "Walferdange",
    "displayName": "Walferdange, Canton Luxembourg, Luxembourg",
    "lat": 49.6584806,
    "lng": 6.1306387
  },
  "warrington": {
    "shortName": "Warrington",
    "searchName": "Warrington",
    "displayName": "Warrington, England, United Kingdom",
    "lat": 53.4015716,
    "lng": -2.5681941
  },
  "wassem land": {
    "shortName": "Wassem land",
    "searchName": "Wassem land",
    "displayName": "Woodberry Wetlands, Stoke Newington, London Borough of Hackney, Greater London, England, N4 2RH, United Kingdom",
    "lat": 51.571549,
    "lng": -0.0853231
  },
  "watford junc": {
    "shortName": "Watford Junc",
    "searchName": "Watford Junc",
    "displayName": "Watford Junction Railway Station (bus station), Woodford Road, North Watford, Watford, Hertfordshire, England, WD17 1TX, United Kingdom",
    "lat": 51.6631195,
    "lng": -0.3961983
  },
  "weesper plein": {
    "shortName": "weesper plein",
    "searchName": "weesper plein",
    "displayName": "Weesperplein, Weesperbuurt, Centrum, Amsterdam, North Holland, Netherlands",
    "lat": 52.3617273,
    "lng": 4.9076793
  },
  "weesperpain": {
    "shortName": "weesperpain",
    "searchName": "weesperpain",
    "displayName": "Weesperplein, Weesperbuurt, Centrum, Amsterdam, North Holland, Netherlands",
    "lat": 52.3617273,
    "lng": 4.9076793
  },
  "west ham": {
    "shortName": "west ham",
    "searchName": "west ham",
    "displayName": "West Ham, West Ham Footbridge, Mill Meads, West Ham, London Borough of Newham, Greater London, England, E15 3BN, United Kingdom",
    "lat": 51.5280966,
    "lng": 0.0045685
  },
  "west minster": {
    "shortName": "west minster",
    "searchName": "west minster",
    "displayName": "Westminster, Millbank, City of Westminster, Greater London, England, SW1P 3JX, United Kingdom",
    "lat": 51.5004439,
    "lng": -0.1265398
  },
  "westcroft square": {
    "shortName": "westcroft square",
    "searchName": "westcroft square",
    "displayName": "Westcroft Square, Hammersmith, London Borough of Hammersmith and Fulham, Greater London, England, W6 0TD, United Kingdom",
    "lat": 51.4945757,
    "lng": -0.243443
  },
  "westminster": {
    "shortName": "westminster",
    "searchName": "westminster",
    "displayName": "Westminster, Millbank, City of Westminster, Greater London, England, SW1P 3JX, United Kingdom",
    "lat": 51.5004439,
    "lng": -0.1265398
  },
  "whitechappel": {
    "shortName": "Whitechappel",
    "searchName": "Whitechappel",
    "displayName": "Whitechapel, London Borough of Tower Hamlets, Greater London, England, E1 1DT, United Kingdom",
    "lat": 51.5174861,
    "lng": -0.0659685
  },
  "wigan": {
    "shortName": "Wigan",
    "searchName": "Wigan",
    "displayName": "Wigan, Greater Manchester, England, WN1 1NR, United Kingdom",
    "lat": 53.546215,
    "lng": -2.6319112
  },
  "wiggan": {
    "shortName": "Wiggan",
    "searchName": "Wiggan",
    "displayName": "Wigan, Greater Manchester, England, WN1 1NR, United Kingdom",
    "lat": 53.546215,
    "lng": -2.6319112
  },
  "york": {
    "shortName": "York",
    "searchName": "York",
    "displayName": "York, York and North Yorkshire, England, United Kingdom",
    "lat": 53.9656579,
    "lng": -1.0743052
  },
  "zamnvoort": {
    "shortName": "zamnvoort",
    "searchName": "zamnvoort",
    "displayName": "Zandvoort, North Holland, Netherlands",
    "lat": 52.3595223,
    "lng": 4.5350259
  },
  "zanvoort": {
    "shortName": "zanvoort",
    "searchName": "zanvoort",
    "displayName": "Zandvoort, North Holland, Netherlands",
    "lat": 52.3719838,
    "lng": 4.5302209
  }
}